demo/demo/$GPRMC,080701.00,A,3128.7540,N,14257.6714,W,000.0,000.0,180707,,,A*1C
demo/demo/$GPRMC,012552.73,A,0444.241335,N,07403.395493,W,006.6,351.1,180711,,,A*46
demo/demo/$GPRMC,012552.73,A,0444.241335,N,07403.395493,W,006.6,351.1,180711,,,A*46
demo/demo/$GPRMC,012552.73,A,0444.241335,N,07403.395493,W,006.6,351.1,180711,,,A*46
demo/demo/$GPRMC,012552.73,A,0444.241335,N,07403.395493,W,006.6,351.1,180711,,,A*46
demo/demo/$GPRMC,012552.73,A,0444.241335,N,07403.395493,W,006.6,351.1,180711,,,A*46
demo/demo/$GPRMC,012552.73,A,0444.241335,N,07403.395493,W,006.6,351.1,180711,,,A*46
demo/demo/$GPRMC,012552.73,A,0444.241335,N,07403.395493,W,006.6,351.1,180711,,,A*46
demo/demo/$GPRMC,012552.73,A,0444.241335,N,07403.395493,W,006.6,351.1,180711,,,A*46
demo/demo/$GPRMC,012552.73,A,0444.241335,N,07403.395493,W,006.6,351.1,180711,,,A*46
demo/demo/$GPRMC,012552.73,A,0444.241335,N,07403.395493,W,006.6,351.1,180711,,,A*46
demo/demo/$GPRMC,012552.73,A,0444.241335,N,07403.395493,W,006.6,351.1,180711,,,A*46
demo/demo/$GPRMC,012552.73,A,0444.241335,N,07403.395493,W,006.6,351.1,180711,,,A*46
demo/demo/$GPRMC,012552.73,A,0444.241335,N,07403.395493,W,006.6,351.1,180711,,,A*46
demo/demo/$GPRMC,012552.73,A,0444.241335,N,07403.395493,W,006.6,351.1,180711,,,A*46
demo/demo/$GPRMC,012552.73,A,0444.241335,N,07403.395493,W,006.6,351.1,180711,,,A*46
demo/demo/$GPRMC,012552.73,A,0444.241335,N,07403.395493,W,006.6,351.1,180711,,,A*46
demo/demo/$GPRMC,012552.73,A,0444.241335,N,07403.395493,W,006.6,351.1,180711,,,A*46
demo/demo/$GPRMC,012552.73,A,0444.241335,N,07403.395493,W,006.6,351.1,180711,,,A*46
demo/demo/$GPRMC,012552.73,A,0444.241335,N,07403.395493,W,006.6,351.1,180711,,,A*46
demo/demo/$GPRMC,012552.73,A,0444.241335,N,07403.395493,W,006.6,351.1,180711,,,A*46
demo/demo/$GPRMC,012552.73,A,0444.241335,N,07403.395493,W,006.6,351.1,180711,,,A*46
demo/demo/$GPRMC,012552.73,A,0444.241335,N,07403.395493,W,006.6,351.1,180711,,,A*46
demo/demo/$GPRMC,012552.73,A,0444.241335,N,07403.395493,W,006.6,351.1,180711,,,A*46
demo/demo/$GPRMC,012552.73,A,0444.241335,N,07403.395493,W,006.6,351.1,180711,,,A*46
demo/demo/$GPRMC,012552.73,A,0444.241335,N,07403.395493,W,006.6,351.1,180711,,,A*46
demo/demo/$GPRMC,012552.73,A,0444.241335,N,07403.395493,W,006.6,351.1,180711,,,A*46
demo/demo/$GPRMC,012552.73,A,0444.241335,N,07403.395493,W,006.6,351.1,180711,,,A*46
demo/demo/$GPRMC,012552.73,A,0444.241335,N,07403.395493,W,006.6,351.1,180711,,,A*46
demo/demo/$GPRMC,012552.73,A,0444.241335,N,07403.395493,W,006.6,351.1,180711,,,A*46
demo/demo/$GPRMC,012552.73,A,0444.241335,N,07403.395493,W,006.6,351.1,180711,,,A*46
demo/demo/$GPRMC,012552.73,A,0444.241335,N,07403.395493,W,006.6,351.1,180711,,,A*46
demo/demo/$GPRMC,012552.73,A,0444.241335,N,07403.395493,W,006.6,351.1,180711,,,A*46
demo/demo/$GPRMC,012552.73,A,0444.241335,N,07403.395493,W,006.6,351.1,180711,,,A*46
demo/demo/$GPRMC,012552.73,A,0444.241335,N,07403.395493,W,006.6,351.1,180711,,,A*46
demo/demo/$GPRMC,012552.73,A,0444.241335,N,07403.395493,W,006.6,351.1,180711,,,A*46
demo/demo/$GPRMC,012552.73,A,0444.241335,N,07403.395493,W,006.6,351.1,180711,,,A*46
demo/demo/$GPRMC,012552.73,A,0444.241335,N,07403.395493,W,006.6,351.1,180711,,,A*46
demo/demo/$GPRMC,012552.73,A,0444.241335,N,07403.395493,W,006.6,351.1,180711,,,A*46
demo/demo/$GPRMC,012552.73,A,0444.241335,N,07403.395493,W,006.6,351.1,180711,,,A*46
demo/demo/$GPRMC,012552.73,A,0444.241335,N,07403.395493,W,006.6,351.1,180711,,,A*46
demo/demo/$GPRMC,012552.73,A,0444.241335,N,07403.395493,W,006.6,351.1,180711,,,A*46
demo/demo/$GPRMC,012552.73,A,0444.241335,N,07403.395493,W,006.6,351.1,180711,,,A*46
demo/demo/$GPRMC,012552.73,A,0444.241335,N,07403.395493,W,006.6,351.1,180711,,,A*46
demo/demo/$GPRMC,012552.73,A,0444.241335,N,07403.395493,W,006.6,351.1,180711,,,A*46
demo/demo/$GPRMC,012552.73,A,0444.241335,N,07403.395493,W,006.6,351.1,180711,,,A*46
demo/demo/$GPRMC,012552.73,A,0444.241335,N,07403.395493,W,006.6,351.1,180711,,,A*46
demo/demo/$GPRMC,012552.73,A,0444.241335,N,07403.395493,W,006.6,351.1,180711,,,A*46
demo/demo/$GPRMC,012552.73,A,0444.241335,N,07403.395493,W,006.6,351.1,180711,,,A*46
demo/demo/$GPRMC,012552.73,A,0444.241335,N,07403.395493,W,006.6,351.1,180711,,,A*46
demo/demo/$GPRMC,012552.73,A,0444.241335,N,07403.395493,W,006.6,351.1,180711,,,A*46
demo/demo/$GPRMC,012552.73,A,0444.241335,N,07403.395493,W,006.6,351.1,180711,,,A*46
demo/demo/$GPRMC,012552.73,A,0444.241335,N,07403.395493,W,006.6,351.1,180711,,,A*46
demo/demo/$GPRMC,012552.73,A,0444.241335,N,07403.395493,W,006.6,351.1,180711,,,A*46
demo/demo/$GPRMC,012552.73,A,0444.241335,N,07403.395493,W,006.6,351.1,180711,,,A*46
demo/demo/$GPRMC,012552.73,A,0444.241335,N,07403.395493,W,006.6,351.1,180711,,,A*46
demo/demo/$GPRMC,012552.73,A,0444.241335,N,07403.395493,W,006.6,351.1,180711,,,A*46
demo/demo/$GPRMC,012552.73,A,0444.241335,N,07403.395493,W,006.6,351.1,180711,,,A*46
demo/demo/$GPRMC,012552.73,A,0444.241335,N,07403.395493,W,006.6,351.1,180711,,,A*46
demo/demo/$GPRMC,012552.73,A,0444.241335,N,07403.395493,W,006.6,351.1,180711,,,A*46
demo/demo/$GPRMC,012552.73,A,0444.241335,N,07403.395493,W,006.6,351.1,180711,,,A*46
demo/demo/$GPRMC,012552.73,A,0444.241335,N,07403.395493,W,006.6,351.1,180711,,,A*46
demo/demo/$GPRMC,012552.73,A,0444.241335,N,07403.395493,W,006.6,351.1,180711,,,A*46
demo/demo/$GPRMC,012552.73,A,0444.241335,N,07403.395493,W,006.6,351.1,180711,,,A*46
demo/demo/$GPRMC,012552.73,A,0444.241335,N,07403.395493,W,006.6,351.1,180711,,,A*46
demo/demo/$GPRMC,012552.73,A,0444.241335,N,07403.395493,W,006.6,351.1,180711,,,A*46
demo/demo/$GPRMC,012552.73,A,0444.241335,N,07403.395493,W,006.6,351.1,180711,,,A*46
demo/demo/$GPRMC,012552.73,A,0444.241335,N,07403.395493,W,006.6,351.1,180711,,,A*46
demo/demo/$GPRMC,012552.73,A,0444.241335,N,07403.395493,W,006.6,351.1,180711,,,A*46
demo/demo/$GPRMC,012552.73,A,0444.241335,N,07403.395493,W,006.6,351.1,180711,,,A*46
demo/demo/$GPRMC,012552.73,A,0444.241335,N,07403.395493,W,006.6,351.1,180711,,,A*46
demo/demo/$GPRMC,012552.73,A,0444.241335,N,07403.395493,W,006.6,351.1,180711,,,A*46
demo/demo/$GPRMC,012552.73,A,0444.241335,N,07403.395493,W,006.6,351.1,180711,,,A*46
demo/demo/$GPRMC,012552.73,A,0444.241335,N,07403.395493,W,006.6,351.1,180711,,,A*46
demo/demo/$GPRMC,012552.73,A,0444.241335,N,07403.395493,W,006.6,351.1,180711,,,A*46
demo/demo/$GPRMC,012552.73,A,0444.241335,N,07403.395493,W,006.6,351.1,180711,,,A*46
demo/demo/$GPRMC,012552.73,A,0444.241335,N,07403.395493,W,006.6,351.1,180711,,,A*46
demo/demo/$GPRMC,012552.73,A,0444.241335,N,07403.395493,W,006.6,351.1,180711,,,A*46
demo/demo/$GPRMC,012552.73,A,0444.241335,N,07403.395493,W,006.6,351.1,180711,,,A*46
demo/demo/$GPRMC,012552.73,A,0444.241335,N,07403.395493,W,006.6,351.1,180711,,,A*46
demo/demo/$GPRMC,012552.73,A,0444.241335,N,07403.395493,W,006.6,351.1,180711,,,A*46
demo/demo/$GPRMC,012552.73,A,0444.241335,N,07403.395493,W,006.6,351.1,180711,,,A*46
demo/demo/$GPRMC,012552.73,A,0444.241335,N,07403.395493,W,006.6,351.1,180711,,,A*46
demo/demo/$GPRMC,012552.73,A,0444.241335,N,07403.395493,W,006.6,351.1,180711,,,A*46
demo/demo/$GPRMC,012552.73,A,0444.241335,N,07403.395493,W,006.6,351.1,180711,,,A*46
demo/demo/$GPRMC,012552.73,A,0444.241335,N,07403.395493,W,006.6,351.1,180711,,,A*46
demo/demo/$GPRMC,012552.73,A,0444.241335,N,07403.395493,W,006.6,351.1,180711,,,A*46
demo/demo/$GPRMC,012552.73,A,0444.241335,N,07403.395493,W,006.6,351.1,180711,,,A*46
demo/demo/$GPRMC,012552.73,A,0444.241335,N,07403.395493,W,006.6,351.1,180711,,,A*46
demo/demo/$GPRMC,012552.73,A,0444.241335,N,07403.395493,W,006.6,351.1,180711,,,A*46
demo/demo/$GPRMC,012552.73,A,0444.241335,N,07403.395493,W,006.6,351.1,180711,,,A*46
demo/demo/$GPRMC,012552.73,A,0444.241335,N,07403.395493,W,006.6,351.1,180711,,,A*46
demo/demo/$GPRMC,012552.73,A,0444.241335,N,07403.395493,W,006.6,351.1,180711,,,A*46
demo/demo/$GPRMC,012552.73,A,0444.241335,N,07403.395493,W,006.6,351.1,180711,,,A*46
demo/demo/$GPRMC,012552.73,A,0444.241335,N,07403.395493,W,006.6,351.1,180711,,,A*46
demo/demo/$GPRMC,012552.73,A,0444.241335,N,07403.395493,W,006.6,351.1,180711,,,A*46
demo/demo/$GPRMC,012552.73,A,0444.241335,N,07403.395493,W,006.6,351.1,180711,,,A*46
demo/demo/$GPRMC,012552.73,A,0444.241335,N,07403.395493,W,006.6,351.1,180711,,,A*46
demo/demo/$GPRMC,012552.73,A,0444.241335,N,07403.395493,W,006.6,351.1,180711,,,A*46
demo/demo/$GPRMC,012552.73,A,0444.241335,N,07403.395493,W,006.6,351.1,180711,,,A*46
demo/demo/$GPRMC,012552.73,A,0444.241335,N,07403.395493,W,006.6,351.1,180711,,,A*46
demo/demo/$GPRMC,012552.73,A,0444.241335,N,07403.395493,W,006.6,351.1,180711,,,A*46
demo/demo/$GPRMC,012552.73,A,0444.241335,N,07403.395493,W,006.6,351.1,180711,,,A*46
demo/demo/$GPRMC,012552.73,A,0444.241335,N,07403.395493,W,006.6,351.1,180711,,,A*46
demo/demo/$GPRMC,012552.73,A,0444.241335,N,07403.395493,W,006.6,351.1,180711,,,A*46
demo/demo/$GPRMC,012552.73,A,0444.241335,N,07403.395493,W,006.6,351.1,180711,,,A*46
demo/demo/$GPRMC,012552.73,A,0444.241335,N,07403.395493,W,006.6,351.1,180711,,,A*46
demo/demo/$GPRMC,012552.73,A,0444.241335,N,07403.395493,W,006.6,351.1,180711,,,A*46
demo/demo/$GPRMC,012552.73,A,0444.241335,N,07403.395493,W,006.6,351.1,180711,,,A*46
demo/demo/$GPRMC,012552.73,A,0444.241335,N,07403.395493,W,006.6,351.1,180711,,,A*46
demo/demo/$GPRMC,012552.73,A,0444.241335,N,07403.395493,W,006.6,351.1,180711,,,A*46
demo/demo/$GPRMC,012552.73,A,0444.241335,N,07403.395493,W,006.6,351.1,180711,,,A*46
demo/demo/$GPRMC,012552.73,A,0444.241335,N,07403.395493,W,006.6,351.1,180711,,,A*46
demo/demo/$GPRMC,012552.73,A,0444.241335,N,07403.395493,W,006.6,351.1,180711,,,A*46
demo/demo/$GPRMC,012552.73,A,0444.241335,N,07403.395493,W,006.6,351.1,180711,,,A*46
demo/demo/$GPRMC,012552.73,A,0444.241335,N,07403.395493,W,006.6,351.1,180711,,,A*46
demo/demo/$GPRMC,012552.73,A,0444.241335,N,07403.395493,W,006.6,351.1,180711,,,A*46
demo/demo/$GPRMC,012552.73,A,0444.241335,N,07403.395493,W,006.6,351.1,180711,,,A*46
demo/demo/$GPRMC,012552.73,A,0444.241335,N,07403.395493,W,006.6,351.1,180711,,,A*46
demo/demo/$GPRMC,012552.73,A,0444.241335,N,07403.395493,W,006.6,351.1,180711,,,A*46
demo/demo/$GPRMC,012552.73,A,0444.241335,N,07403.395493,W,006.6,351.1,180711,,,A*46
demo/demo/$GPRMC,012552.73,A,0444.241335,N,07403.395493,W,006.6,351.1,180711,,,A*46
demo/demo/$GPRMC,012552.73,A,0444.241335,N,07403.395493,W,006.6,351.1,180711,,,A*46
demo/demo/$GPRMC,012552.73,A,0444.241335,N,07403.395493,W,006.6,351.1,180711,,,A*46
demo/demo/$GPRMC,012552.73,A,0444.241335,N,07403.395493,W,006.6,351.1,180711,,,A*46
demo/demo/$GPRMC,012552.73,A,0444.241335,N,07403.395493,W,006.6,351.1,180711,,,A*46
demo/demo/$GPRMC,012552.73,A,0444.241335,N,07403.395493,W,006.6,351.1,180711,,,A*46
demo/demo/$GPRMC,012552.73,A,0444.241335,N,07403.395493,W,006.6,351.1,180711,,,A*46
demo/demo/$GPRMC,012552.73,A,0444.241335,N,07403.395493,W,006.6,351.1,180711,,,A*46
demo/demo/$GPRMC,012552.73,A,0444.241335,N,07403.395493,W,006.6,351.1,180711,,,A*46
demo/demo/$GPRMC,012552.73,A,0444.241335,N,07403.395493,W,006.6,351.1,180711,,,A*46
demo/demo/$GPRMC,012552.73,A,0444.241335,N,07403.395493,W,006.6,351.1,180711,,,A*46
demo/demo/$GPRMC,012552.73,A,0444.241335,N,07403.395493,W,006.6,351.1,180711,,,A*46
demo/demo/$GPRMC,012552.73,A,0444.241335,N,07403.395493,W,006.6,351.1,180711,,,A*46
demo/demo/$GPRMC,012552.73,A,0444.241335,N,07403.395493,W,006.6,351.1,180711,,,A*46
demo/demo/$GPRMC,012552.73,A,0444.241335,N,07403.395493,W,006.6,351.1,180711,,,A*46
demo/demo/$GPRMC,012552.73,A,0444.241335,N,07403.395493,W,006.6,351.1,180711,,,A*46
demo/demo/$GPRMC,012552.73,A,0444.241335,N,07403.395493,W,006.6,351.1,180711,,,A*46
demo/demo/$GPRMC,012552.73,A,0444.241335,N,07403.395493,W,006.6,351.1,180711,,,A*46
demo/demo/$GPRMC,012552.73,A,0444.241335,N,07403.395493,W,006.6,351.1,180711,,,A*46
demo/demo/$GPRMC,012552.73,A,0444.241335,N,07403.395493,W,006.6,351.1,180711,,,A*46
demo/demo/$GPRMC,012552.73,A,0444.241335,N,07403.395493,W,006.6,351.1,180711,,,A*46
demo/demo/$GPRMC,012552.73,A,0444.241335,N,07403.395493,W,006.6,351.1,180711,,,A*46
demo/demo/$GPRMC,012552.73,A,0444.241335,N,07403.395493,W,006.6,351.1,180711,,,A*46
demo/demo/$GPRMC,012552.73,A,0444.241335,N,07403.395493,W,006.6,351.1,180711,,,A*46
demo/demo/$GPRMC,012552.73,A,0444.241335,N,07403.395493,W,006.6,351.1,180711,,,A*46
demo/demo/$GPRMC,012552.73,A,0444.241335,N,07403.395493,W,006.6,351.1,180711,,,A*46
demo/demo/$GPRMC,012552.73,A,0444.241335,N,07403.395493,W,006.6,351.1,180711,,,A*46
demo/demo/$GPRMC,012552.73,A,0444.241335,N,07403.395493,W,006.6,351.1,180711,,,A*46
demo/demo/$GPRMC,012552.73,A,0444.241335,N,07403.395493,W,006.6,351.1,180711,,,A*46
demo/demo/$GPRMC,012552.73,A,0444.241335,N,07403.395493,W,006.6,351.1,180711,,,A*46
demo/demo/$GPRMC,012552.73,A,0444.241335,N,07403.395493,W,006.6,351.1,180711,,,A*46
demo/demo/$GPRMC,012552.73,A,0444.241335,N,07403.395493,W,006.6,351.1,180711,,,A*46
demo/demo/$GPRMC,012552.73,A,0444.241335,N,07403.395493,W,006.6,351.1,180711,,,A*46
demo/demo/$GPRMC,012552.73,A,0444.241335,N,07403.395493,W,006.6,351.1,180711,,,A*46
demo/demo/$GPRMC,012552.73,A,0444.241335,N,07403.395493,W,006.6,351.1,180711,,,A*46
demo/demo/$GPRMC,012552.73,A,0444.241335,N,07403.395493,W,006.6,351.1,180711,,,A*46
demo/demo/$GPRMC,012552.73,A,0444.241335,N,07403.395493,W,006.6,351.1,180711,,,A*46
demo/demo/$GPRMC,012552.73,A,0444.241335,N,07403.395493,W,006.6,351.1,180711,,,A*46
demo/demo/$GPRMC,012552.73,A,0444.241335,N,07403.395493,W,006.6,351.1,180711,,,A*46
demo/demo/$GPRMC,012552.73,A,0444.241335,N,07403.395493,W,006.6,351.1,180711,,,A*46
demo/demo/$GPRMC,012552.73,A,0444.241335,N,07403.395493,W,006.6,351.1,180711,,,A*46
demo/demo/$GPRMC,012552.73,A,0444.241335,N,07403.395493,W,006.6,351.1,180711,,,A*46
demo/demo/$GPRMC,012552.73,A,0444.241335,N,07403.395493,W,006.6,351.1,180711,,,A*46
demo/demo/$GPRMC,012552.73,A,0444.241335,N,07403.395493,W,006.6,351.1,180711,,,A*46
demo/demo/$GPRMC,012552.73,A,0444.241335,N,07403.395493,W,006.6,351.1,180711,,,A*46
demo/demo/$GPRMC,012552.73,A,0444.241335,N,07403.395493,W,006.6,351.1,180711,,,A*46
demo/demo/$GPRMC,012552.73,A,0444.241335,N,07403.395493,W,006.6,351.1,180711,,,A*46
demo/demo/$GPRMC,012552.73,A,0444.241335,N,07403.395493,W,006.6,351.1,180711,,,A*46
demo/demo/$GPRMC,012552.73,A,0444.241335,N,07403.395493,W,006.6,351.1,180711,,,A*46
demo/demo/$GPRMC,012552.73,A,0444.241335,N,07403.395493,W,006.6,351.1,180711,,,A*46
demo/demo/$GPRMC,012552.73,A,0444.241335,N,07403.395493,W,006.6,351.1,180711,,,A*46
demo/demo/$GPRMC,012552.73,A,0444.241335,N,07403.395493,W,006.6,351.1,180711,,,A*46
demo/demo/$GPRMC,012552.73,A,0444.241335,N,07403.395493,W,006.6,351.1,180711,,,A*46
demo/demo/$GPRMC,012552.73,A,0444.241335,N,07403.395493,W,006.6,351.1,180711,,,A*46
demo/demo/$GPRMC,012552.73,A,0444.241335,N,07403.395493,W,006.6,351.1,180711,,,A*46
demo/demo/$GPRMC,012552.73,A,0444.241335,N,07403.395493,W,006.6,351.1,180711,,,A*46
demo/demo/$GPRMC,012552.73,A,0444.241335,N,07403.395493,W,006.6,351.1,180711,,,A*46
demo/demo/$GPRMC,012552.73,A,0444.241335,N,07403.395493,W,006.6,351.1,180711,,,A*46
demo/demo/$GPRMC,012552.73,A,0444.241335,N,07403.395493,W,006.6,351.1,180711,,,A*46
demo/demo/$GPRMC,012552.73,A,0444.241335,N,07403.395493,W,006.6,351.1,180711,,,A*46
demo/demo/$GPRMC,012552.73,A,0444.241335,N,07403.395493,W,006.6,351.1,180711,,,A*46
demo/demo/$GPRMC,012552.73,A,0444.241335,N,07403.395493,W,006.6,351.1,180711,,,A*46
demo/demo/$GPRMC,012552.73,A,0444.241335,N,07403.395493,W,006.6,351.1,180711,,,A*46
demo/demo/$GPRMC,012552.73,A,0444.241335,N,07403.395493,W,006.6,351.1,180711,,,A*46
demo/demo/$GPRMC,012552.73,A,0444.241335,N,07403.395493,W,006.6,351.1,180711,,,A*46
demo/demo/$GPRMC,012552.73,A,0444.241335,N,07403.395493,W,006.6,351.1,180711,,,A*46
demo/demo/$GPRMC,012552.73,A,0444.241335,N,07403.395493,W,006.6,351.1,180711,,,A*46
demo/demo/$GPRMC,012552.73,A,0444.241335,N,07403.395493,W,006.6,351.1,180711,,,A*46
demo/demo/$GPRMC,012552.73,A,0444.241335,N,07403.395493,W,006.6,351.1,180711,,,A*46
demo/demo/$GPRMC,012552.73,A,0444.241335,N,07403.395493,W,006.6,351.1,180711,,,A*46
demo/demo/$GPRMC,012552.73,A,0444.241335,N,07403.395493,W,006.6,351.1,180711,,,A*46
demo/demo/$GPRMC,012552.73,A,0444.241335,N,07403.395493,W,006.6,351.1,180711,,,A*46
demo/demo/$GPRMC,012552.73,A,0444.241335,N,07403.395493,W,006.6,351.1,180711,,,A*46
demo/demo/$GPRMC,012552.73,A,0444.241335,N,07403.395493,W,006.6,351.1,180711,,,A*46
demo/demo/$GPRMC,012552.73,A,0444.241335,N,07403.395493,W,006.6,351.1,180711,,,A*46
demo/demo/$GPRMC,012552.73,A,0444.241335,N,07403.395493,W,006.6,351.1,180711,,,A*46
demo/demo/$GPRMC,012552.73,A,0444.241335,N,07403.395493,W,006.6,351.1,180711,,,A*46
demo/demo/$GPRMC,012552.73,A,0444.241335,N,07403.395493,W,006.6,351.1,180711,,,A*46
demo/demo/$GPRMC,012552.73,A,0444.241335,N,07403.395493,W,006.6,351.1,180711,,,A*46
demo/demo/$GPRMC,012552.73,A,0444.241335,N,07403.395493,W,006.6,351.1,180711,,,A*46
demo/demo/$GPRMC,012552.73,A,0444.241335,N,07403.395493,W,006.6,351.1,180711,,,A*46
demo/demo/$GPRMC,012552.73,A,0444.241335,N,07403.395493,W,006.6,351.1,180711,,,A*46
demo/demo/$GPRMC,012552.73,A,0444.241335,N,07403.395493,W,006.6,351.1,180711,,,A*46
demo/demo/$GPRMC,012552.73,A,0444.241335,N,07403.395493,W,006.6,351.1,180711,,,A*46
demo/demo/$GPRMC,012552.73,A,0444.241335,N,07403.395493,W,006.6,351.1,180711,,,A*46
demo/demo/$GPRMC,012552.73,A,0444.241335,N,07403.395493,W,006.6,351.1,180711,,,A*46
demo/demo/$GPRMC,012552.73,A,0444.241335,N,07403.395493,W,006.6,351.1,180711,,,A*46
demo/demo/$GPRMC,012552.73,A,0444.241335,N,07403.395493,W,006.6,351.1,180711,,,A*46
demo/demo/$GPRMC,012552.73,A,0444.241335,N,07403.395493,W,006.6,351.1,180711,,,A*46
demo/demo/$GPRMC,012552.73,A,0444.241335,N,07403.395493,W,006.6,351.1,180711,,,A*46
demo/demo/$GPRMC,012552.73,A,0444.241335,N,07403.395493,W,006.6,351.1,180711,,,A*46
demo/demo/$GPRMC,012552.73,A,0444.241335,N,07403.395493,W,006.6,351.1,180711,,,A*46
demo/demo/$GPRMC,012552.73,A,0444.241335,N,07403.395493,W,006.6,351.1,180711,,,A*46
demo/demo/$GPRMC,012552.73,A,0444.241335,N,07403.395493,W,006.6,351.1,180711,,,A*46
demo/demo/$GPRMC,012552.73,A,0444.241335,N,07403.395493,W,006.6,351.1,180711,,,A*46
demo/demo/$GPRMC,012552.73,A,0444.241335,N,07403.395493,W,006.6,351.1,180711,,,A*46
demo/demo/$GPRMC,012552.73,A,0444.241335,N,07403.395493,W,006.6,351.1,180711,,,A*46
demo/demo/$GPRMC,012552.73,A,0444.241335,N,07403.395493,W,006.6,351.1,180711,,,A*46
demo/demo/$GPRMC,012552.73,A,0444.241335,N,07403.395493,W,006.6,351.1,180711,,,A*46
demo/demo/$GPRMC,012552.73,A,0444.241335,N,07403.395493,W,006.6,351.1,180711,,,A*46
demo/demo/$GPRMC,012552.73,A,0444.241335,N,07403.395493,W,006.6,351.1,180711,,,A*46
demo/demo/$GPRMC,012552.73,A,0444.241335,N,07403.395493,W,006.6,351.1,180711,,,A*46
demo/demo/$GPRMC,012552.73,A,0444.241335,N,07403.395493,W,006.6,351.1,180711,,,A*46
demo/demo/$GPRMC,012552.73,A,0444.241335,N,07403.395493,W,006.6,351.1,180711,,,A*46
demo/demo/$GPRMC,012552.73,A,0444.241335,N,07403.395493,W,006.6,351.1,180711,,,A*46
demo/demo/$GPRMC,012552.73,A,0444.241335,N,07403.395493,W,006.6,351.1,180711,,,A*46
demo/demo/$GPRMC,012552.73,A,0444.241335,N,07403.395493,W,006.6,351.1,180711,,,A*46
demo/demo/$GPRMC,012552.73,A,0444.241335,N,07403.395493,W,006.6,351.1,180711,,,A*46
demo/demo/$GPRMC,012552.73,A,0444.241335,N,07403.395493,W,006.6,351.1,180711,,,A*46
demo/demo/$GPRMC,012552.73,A,0444.241335,N,07403.395493,W,006.6,351.1,180711,,,A*46
demo/demo/$GPRMC,012552.73,A,0444.241335,N,07403.395493,W,006.6,351.1,180711,,,A*46
demo/demo/$GPRMC,012552.73,A,0444.241335,N,07403.395493,W,006.6,351.1,180711,,,A*46
demo/demo/$GPRMC,012552.73,A,0444.241335,N,07403.395493,W,006.6,351.1,180711,,,A*46
demo/demo/$GPRMC,012552.73,A,0444.241335,N,07403.395493,W,006.6,351.1,180711,,,A*46
demo/demo/$GPRMC,012552.73,A,0444.241335,N,07403.395493,W,006.6,351.1,180711,,,A*46
demo/demo/$GPRMC,012552.73,A,0444.241335,N,07403.395493,W,006.6,351.1,180711,,,A*46
demo/demo/$GPRMC,012552.73,A,0444.241335,N,07403.395493,W,006.6,351.1,180711,,,A*46
demo/demo/$GPRMC,012552.73,A,0444.241335,N,07403.395493,W,006.6,351.1,180711,,,A*46
demo/demo/$GPRMC,012552.73,A,0444.241335,N,07403.395493,W,006.6,351.1,180711,,,A*46
demo/demo/$GPRMC,012552.73,A,0444.241335,N,07403.395493,W,006.6,351.1,180711,,,A*46
demo/demo/$GPRMC,012552.73,A,0444.241335,N,07403.395493,W,006.6,351.1,180711,,,A*46
demo/demo/$GPRMC,012552.73,A,0444.241335,N,07403.395493,W,006.6,351.1,180711,,,A*46
demo/demo/$GPRMC,012552.73,A,0444.241335,N,07403.395493,W,006.6,351.1,180711,,,A*46
demo/demo/$GPRMC,012552.73,A,0444.241335,N,07403.395493,W,006.6,351.1,180711,,,A*46
demo/demo/$GPRMC,012552.73,A,0444.241335,N,07403.395493,W,006.6,351.1,180711,,,A*46
demo/demo/$GPRMC,012552.73,A,0444.241335,N,07403.395493,W,006.6,351.1,180711,,,A*46
demo/demo/$GPRMC,012552.73,A,0444.241335,N,07403.395493,W,006.6,351.1,180711,,,A*46
demo/demo/$GPRMC,012552.73,A,0444.241335,N,07403.395493,W,006.6,351.1,180711,,,A*46
demo/demo/$GPRMC,012552.73,A,0444.241335,N,07403.395493,W,006.6,351.1,180711,,,A*46
demo/demo/$GPRMC,012552.73,A,0444.241335,N,07403.395493,W,006.6,351.1,180711,,,A*46
demo/demo/$GPRMC,012552.73,A,0444.241335,N,07403.395493,W,006.6,351.1,180711,,,A*46
demo/demo/$GPRMC,012552.73,A,0444.241335,N,07403.395493,W,006.6,351.1,180711,,,A*46
demo/demo/$GPRMC,012552.73,A,0444.241335,N,07403.395493,W,006.6,351.1,180711,,,A*46
demo/demo/$GPRMC,012552.73,A,0444.241335,N,07403.395493,W,006.6,351.1,180711,,,A*46
demo/demo/$GPRMC,012552.73,A,0444.241335,N,07403.395493,W,006.6,351.1,180711,,,A*46
demo/demo/$GPRMC,012552.73,A,0444.241335,N,07403.395493,W,006.6,351.1,180711,,,A*46
demo/demo/$GPRMC,012552.73,A,0444.241335,N,07403.395493,W,006.6,351.1,180711,,,A*46
demo/demo/$GPRMC,012552.73,A,0444.241335,N,07403.395493,W,006.6,351.1,180711,,,A*46
demo/demo/$GPRMC,012552.73,A,0444.241335,N,07403.395493,W,006.6,351.1,180711,,,A*46
demo/demo/$GPRMC,012552.73,A,0444.241335,N,07403.395493,W,006.6,351.1,180711,,,A*46
demo/demo/$GPRMC,012552.73,A,0444.241335,N,07403.395493,W,006.6,351.1,180711,,,A*46
demo/demo/$GPRMC,012552.73,A,0444.241335,N,07403.395493,W,006.6,351.1,180711,,,A*46
demo/demo/$GPRMC,012552.73,A,0444.241335,N,07403.395493,W,006.6,351.1,180711,,,A*46
demo/demo/$GPRMC,012552.73,A,0444.241335,N,07403.395493,W,006.6,351.1,180711,,,A*46
demo/demo/$GPRMC,012552.73,A,0444.241335,N,07403.395493,W,006.6,351.1,180711,,,A*46
demo/demo/$GPRMC,012552.73,A,0444.241335,N,07403.395493,W,006.6,351.1,180711,,,A*46
demo/demo/$GPRMC,012552.73,A,0444.241335,N,07403.395493,W,006.6,351.1,180711,,,A*46
demo/demo/$GPRMC,012552.73,A,0444.241335,N,07403.395493,W,006.6,351.1,180711,,,A*46
demo/demo/$GPRMC,012552.73,A,0444.241335,N,07403.395493,W,006.6,351.1,180711,,,A*46
demo/demo/$GPRMC,012552.73,A,0444.241335,N,07403.395493,W,006.6,351.1,180711,,,A*46
demo/demo/$GPRMC,012552.73,A,0444.241335,N,07403.395493,W,006.6,351.1,180711,,,A*46
demo/demo/$GPRMC,012552.73,A,0444.241335,N,07403.395493,W,006.6,351.1,180711,,,A*46
demo/demo/$GPRMC,012552.73,A,0444.241335,N,07403.395493,W,006.6,351.1,180711,,,A*46
demo/demo/$GPRMC,012552.73,A,0444.241335,N,07403.395493,W,006.6,351.1,180711,,,A*46
demo/demo/$GPRMC,012552.73,A,0444.241335,N,07403.395493,W,006.6,351.1,180711,,,A*46
demo/demo/$GPRMC,012552.73,A,0444.241335,N,07403.395493,W,006.6,351.1,180711,,,A*46
demo/demo/$GPRMC,012552.73,A,0444.241335,N,07403.395493,W,006.6,351.1,180711,,,A*46
demo/demo/$GPRMC,012552.73,A,0444.241335,N,07403.395493,W,006.6,351.1,180711,,,A*46
demo/demo/$GPRMC,012552.73,A,0444.241335,N,07403.395493,W,006.6,351.1,180711,,,A*46
demo/demo/$GPRMC,012552.73,A,0444.241335,N,07403.395493,W,006.6,351.1,180711,,,A*46
demo/demo/$GPRMC,012552.73,A,0444.241335,N,07403.395493,W,006.6,351.1,180711,,,A*46
demo/demo/$GPRMC,012552.73,A,0444.241335,N,07403.395493,W,006.6,351.1,180711,,,A*46
demo/demo/$GPRMC,012552.73,A,0444.241335,N,07403.395493,W,006.6,351.1,180711,,,A*46
demo/demo/$GPRMC,012552.73,A,0444.241335,N,07403.395493,W,006.6,351.1,180711,,,A*46
demo/demo/$GPRMC,012552.73,A,0444.241335,N,07403.395493,W,006.6,351.1,180711,,,A*46
demo/demo/$GPRMC,012552.73,A,0444.241335,N,07403.395493,W,006.6,351.1,180711,,,A*46
demo/demo/$GPRMC,012552.73,A,0444.241335,N,07403.395493,W,006.6,351.1,180711,,,A*46
demo/demo/$GPRMC,012552.73,A,0444.241335,N,07403.395493,W,006.6,351.1,180711,,,A*46
demo/demo/$GPRMC,012552.73,A,0444.241335,N,07403.395493,W,006.6,351.1,180711,,,A*46
demo/demo/$GPRMC,012552.73,A,0444.241335,N,07403.395493,W,006.6,351.1,180711,,,A*46
demo/demo/$GPRMC,012552.73,A,0444.241335,N,07403.395493,W,006.6,351.1,180711,,,A*46
demo/demo/$GPRMC,012552.73,A,0444.241335,N,07403.395493,W,006.6,351.1,180711,,,A*46
demo/demo/$GPRMC,012552.73,A,0444.241335,N,07403.395493,W,006.6,351.1,180711,,,A*46
demo/demo/$GPRMC,012552.73,A,0444.241335,N,07403.395493,W,006.6,351.1,180711,,,A*46
demo/demo/$GPRMC,012552.73,A,0444.241335,N,07403.395493,W,006.6,351.1,180711,,,A*46
demo/demo/$GPRMC,012552.73,A,0444.241335,N,07403.395493,W,006.6,351.1,180711,,,A*46
demo/demo/$GPRMC,012552.73,A,0444.241335,N,07403.395493,W,006.6,351.1,180711,,,A*46
demo/demo/$GPRMC,012552.73,A,0444.241335,N,07403.395493,W,006.6,351.1,180711,,,A*46
demo/demo/$GPRMC,012552.73,A,0444.241335,N,07403.395493,W,006.6,351.1,180711,,,A*46
demo/demo/$GPRMC,012552.73,A,0444.241335,N,07403.395493,W,006.6,351.1,180711,,,A*46
demo/demo/$GPRMC,012552.73,A,0444.241335,N,07403.395493,W,006.6,351.1,180711,,,A*46
demo/demo/$GPRMC,012552.73,A,0444.241335,N,07403.395493,W,006.6,351.1,180711,,,A*46
demo/demo/$GPRMC,012552.73,A,0444.241335,N,07403.395493,W,006.6,351.1,180711,,,A*46
demo/demo/$GPRMC,012552.73,A,0444.241335,N,07403.395493,W,006.6,351.1,180711,,,A*46
demo/demo/$GPRMC,012552.73,A,0444.241335,N,07403.395493,W,006.6,351.1,180711,,,A*46
demo/demo/$GPRMC,012552.73,A,0444.241335,N,07403.395493,W,006.6,351.1,180711,,,A*46
demo/demo/$GPRMC,012552.73,A,0444.241335,N,07403.395493,W,006.6,351.1,180711,,,A*46
demo/demo/$GPRMC,012552.73,A,0444.241335,N,07403.395493,W,006.6,351.1,180711,,,A*46
demo/demo/$GPRMC,012552.73,A,0444.241335,N,07403.395493,W,006.6,351.1,180711,,,A*46
demo/demo/$GPRMC,012552.73,A,0444.241335,N,07403.395493,W,006.6,351.1,180711,,,A*46
demo/demo/$GPRMC,012552.73,A,0444.241335,N,07403.395493,W,006.6,351.1,180711,,,A*46
demo/demo/$GPRMC,012552.73,A,0444.241335,N,07403.395493,W,006.6,351.1,180711,,,A*46
demo/demo/$GPRMC,012552.73,A,0444.241335,N,07403.395493,W,006.6,351.1,180711,,,A*46
demo/demo/$GPRMC,012552.73,A,0444.241335,N,07403.395493,W,006.6,351.1,180711,,,A*46
demo/demo/$GPRMC,012552.73,A,0444.241335,N,07403.395493,W,006.6,351.1,180711,,,A*46
demo/demo/$GPRMC,012552.73,A,0444.241335,N,07403.395493,W,006.6,351.1,180711,,,A*46
demo/demo/$GPRMC,012552.73,A,0444.241335,N,07403.395493,W,006.6,351.1,180711,,,A*46
demo/demo/$GPRMC,012552.73,A,0444.241335,N,07403.395493,W,006.6,351.1,180711,,,A*46
demo/demo/$GPRMC,012552.73,A,0444.241335,N,07403.395493,W,006.6,351.1,180711,,,A*46
demo/demo/$GPRMC,012552.73,A,0444.241335,N,07403.395493,W,006.6,351.1,180711,,,A*46
demo/demo/$GPRMC,012552.73,A,0444.241335,N,07403.395493,W,006.6,351.1,180711,,,A*46
demo/demo/$GPRMC,012552.73,A,0444.241335,N,07403.395493,W,006.6,351.1,180711,,,A*46
demo/demo/$GPRMC,012552.73,A,0444.241335,N,07403.395493,W,006.6,351.1,180711,,,A*46
demo/demo/$GPRMC,012552.73,A,0444.241335,N,07403.395493,W,006.6,351.1,180711,,,A*46
demo/demo/$GPRMC,012552.73,A,0444.241335,N,07403.395493,W,006.6,351.1,180711,,,A*46
demo/demo/$GPRMC,012552.73,A,0444.241335,N,07403.395493,W,006.6,351.1,180711,,,A*46
demo/demo/$GPRMC,012552.73,A,0444.241335,N,07403.395493,W,006.6,351.1,180711,,,A*46
demo/demo/$GPRMC,012552.73,A,0444.241335,N,07403.395493,W,006.6,351.1,180711,,,A*46
demo/demo/$GPRMC,012552.73,A,0444.241335,N,07403.395493,W,006.6,351.1,180711,,,A*46
demo/demo/$GPRMC,012552.73,A,0444.241335,N,07403.395493,W,006.6,351.1,180711,,,A*46
demo/demo/$GPRMC,012552.73,A,0444.241335,N,07403.395493,W,006.6,351.1,180711,,,A*46
demo/demo/$GPRMC,012552.73,A,0444.241335,N,07403.395493,W,006.6,351.1,180711,,,A*46
demo/demo/$GPRMC,012552.73,A,0444.241335,N,07403.395493,W,006.6,351.1,180711,,,A*46
demo/demo/$GPRMC,012552.73,A,0444.241335,N,07403.395493,W,006.6,351.1,180711,,,A*46
demo/demo/$GPRMC,012552.73,A,0444.241335,N,07403.395493,W,006.6,351.1,180711,,,A*46
demo/demo/$GPRMC,012552.73,A,0444.241335,N,07403.395493,W,006.6,351.1,180711,,,A*46
demo/demo/$GPRMC,012552.73,A,0444.241335,N,07403.395493,W,006.6,351.1,180711,,,A*46
demo/demo/$GPRMC,012552.73,A,0444.241335,N,07403.395493,W,006.6,351.1,180711,,,A*46
demo/demo/$GPRMC,012552.73,A,0444.241335,N,07403.395493,W,006.6,351.1,180711,,,A*46
demo/demo/$GPRMC,012552.73,A,0444.241335,N,07403.395493,W,006.6,351.1,180711,,,A*46
demo/demo/$GPRMC,012552.73,A,0444.241335,N,07403.395493,W,006.6,351.1,180711,,,A*46
demo/demo/$GPRMC,012552.73,A,0444.241335,N,07403.395493,W,006.6,351.1,180711,,,A*46
demo/demo/$GPRMC,012552.73,A,0444.241335,N,07403.395493,W,006.6,351.1,180711,,,A*46
demo/demo/$GPRMC,012552.73,A,0444.241335,N,07403.395493,W,006.6,351.1,180711,,,A*46
demo/demo/$GPRMC,012552.73,A,0444.241335,N,07403.395493,W,006.6,351.1,180711,,,A*46
demo/demo/$GPRMC,012552.73,A,0444.241335,N,07403.395493,W,006.6,351.1,180711,,,A*46
demo/demo/$GPRMC,012552.73,A,0444.241335,N,07403.395493,W,006.6,351.1,180711,,,A*46
demo/demo/$GPRMC,012552.73,A,0444.241335,N,07403.395493,W,006.6,351.1,180711,,,A*46
demo/demo/$GPRMC,012552.73,A,0444.241335,N,07403.395493,W,006.6,351.1,180711,,,A*46
demo/demo/$GPRMC,012552.73,A,0444.241335,N,07403.395493,W,006.6,351.1,180711,,,A*46
demo/demo/$GPRMC,012552.73,A,0444.241335,N,07403.395493,W,006.6,351.1,180711,,,A*46
demo/demo/$GPRMC,012552.73,A,0444.241335,N,07403.395493,W,006.6,351.1,180711,,,A*46
demo/demo/$GPRMC,012552.73,A,0444.241335,N,07403.395493,W,006.6,351.1,180711,,,A*46
demo/demo/$GPRMC,012552.73,A,0444.241335,N,07403.395493,W,006.6,351.1,180711,,,A*46
demo/demo/$GPRMC,012552.73,A,0444.241335,N,07403.395493,W,006.6,351.1,180711,,,A*46
demo/demo/$GPRMC,012552.73,A,0444.241335,N,07403.395493,W,006.6,351.1,180711,,,A*46
demo/demo/$GPRMC,012552.73,A,0444.241335,N,07403.395493,W,006.6,351.1,180711,,,A*46
demo/demo/$GPRMC,012552.73,A,0444.241335,N,07403.395493,W,006.6,351.1,180711,,,A*46
demo/demo/$GPRMC,012552.73,A,0444.241335,N,07403.395493,W,006.6,351.1,180711,,,A*46
demo/demo/$GPRMC,012552.73,A,0444.241335,N,07403.395493,W,006.6,351.1,180711,,,A*46
demo/demo/$GPRMC,012552.73,A,0444.241335,N,07403.395493,W,006.6,351.1,180711,,,A*46
demo/demo/$GPRMC,012552.73,A,0444.241335,N,07403.395493,W,006.6,351.1,180711,,,A*46
demo/demo/$GPRMC,012552.73,A,0444.241335,N,07403.395493,W,006.6,351.1,180711,,,A*46
demo/demo/$GPRMC,012552.73,A,0444.241335,N,07403.395493,W,006.6,351.1,180711,,,A*46
demo/demo/$GPRMC,012552.73,A,0444.241335,N,07403.395493,W,006.6,351.1,180711,,,A*46
demo/demo/$GPRMC,012552.73,A,0444.241335,N,07403.395493,W,006.6,351.1,180711,,,A*46
demo/demo/$GPRMC,012552.73,A,0444.241335,N,07403.395493,W,006.6,351.1,180711,,,A*46
demo/demo/$GPRMC,012552.73,A,0444.241335,N,07403.395493,W,006.6,351.1,180711,,,A*46
demo/demo/$GPRMC,012552.73,A,0444.241335,N,07403.395493,W,006.6,351.1,180711,,,A*46
demo/demo/$GPRMC,012552.73,A,0444.241335,N,07403.395493,W,006.6,351.1,180711,,,A*46
demo/demo/$GPRMC,012552.73,A,0444.241335,N,07403.395493,W,006.6,351.1,180711,,,A*46
demo/demo/$GPRMC,012552.73,A,0444.241335,N,07403.395493,W,006.6,351.1,180711,,,A*46
demo/demo/$GPRMC,012552.73,A,0444.241335,N,07403.395493,W,006.6,351.1,180711,,,A*46
demo/demo/$GPRMC,012552.73,A,0444.241335,N,07403.395493,W,006.6,351.1,180711,,,A*46
demo/demo/$GPRMC,012552.73,A,0444.241335,N,07403.395493,W,006.6,351.1,180711,,,A*46
demo/demo/$GPRMC,012552.73,A,0444.241335,N,07403.395493,W,006.6,351.1,180711,,,A*46
demo/demo/$GPRMC,012552.73,A,0444.241335,N,07403.395493,W,006.6,351.1,180711,,,A*46
demo/demo/$GPRMC,012552.73,A,0444.241335,N,07403.395493,W,006.6,351.1,180711,,,A*46
demo/demo/$GPRMC,012552.73,A,0444.241335,N,07403.395493,W,006.6,351.1,180711,,,A*46
demo/demo/$GPRMC,012552.73,A,0444.241335,N,07403.395493,W,006.6,351.1,180711,,,A*46
demo/demo/$GPRMC,012552.73,A,0444.241335,N,07403.395493,W,006.6,351.1,180711,,,A*46
demo/demo/$GPRMC,012552.73,A,0444.241335,N,07403.395493,W,006.6,351.1,180711,,,A*46
demo/demo/$GPRMC,012552.73,A,0444.241335,N,07403.395493,W,006.6,351.1,180711,,,A*46
demo/demo/$GPRMC,012552.73,A,0444.241335,N,07403.395493,W,006.6,351.1,180711,,,A*46
demo/demo/$GPRMC,012552.73,A,0444.241335,N,07403.395493,W,006.6,351.1,180711,,,A*46
demo/demo/$GPRMC,012552.73,A,0444.241335,N,07403.395493,W,006.6,351.1,180711,,,A*46
demo/demo/$GPRMC,012552.73,A,0444.241335,N,07403.395493,W,006.6,351.1,180711,,,A*46
demo/demo/$GPRMC,012552.73,A,0444.241335,N,07403.395493,W,006.6,351.1,180711,,,A*46
demo/demo/$GPRMC,012552.73,A,0444.241335,N,07403.395493,W,006.6,351.1,180711,,,A*46
demo/demo/$GPRMC,012552.73,A,0444.241335,N,07403.395493,W,006.6,351.1,180711,,,A*46
demo/demo/$GPRMC,012552.73,A,0444.241335,N,07403.395493,W,006.6,351.1,180711,,,A*46
demo/demo/$GPRMC,012552.73,A,0444.241335,N,07403.395493,W,006.6,351.1,180711,,,A*46
demo/demo/$GPRMC,012552.73,A,0444.241335,N,07403.395493,W,006.6,351.1,180711,,,A*46
demo/demo/$GPRMC,012552.73,A,0444.241335,N,07403.395493,W,006.6,351.1,180711,,,A*46
demo/demo/$GPRMC,012552.73,A,0444.241335,N,07403.395493,W,006.6,351.1,180711,,,A*46
demo/demo/$GPRMC,012552.73,A,0444.241335,N,07403.395493,W,006.6,351.1,180711,,,A*46
demo/demo/$GPRMC,012552.73,A,0444.241335,N,07403.395493,W,006.6,351.1,180711,,,A*46
demo/demo/$GPRMC,012552.73,A,0444.241335,N,07403.395493,W,006.6,351.1,180711,,,A*46
demo/demo/$GPRMC,012552.73,A,0444.241335,N,07403.395493,W,006.6,351.1,180711,,,A*46
demo/demo/$GPRMC,012552.73,A,0444.241335,N,07403.395493,W,006.6,351.1,180711,,,A*46
demo/demo/$GPRMC,012552.73,A,0444.241335,N,07403.395493,W,006.6,351.1,180711,,,A*46
demo/demo/$GPRMC,012552.73,A,0444.241335,N,07403.395493,W,006.6,351.1,180711,,,A*46
demo/demo/$GPRMC,012552.73,A,0444.241335,N,07403.395493,W,006.6,351.1,180711,,,A*46
demo/demo/$GPRMC,012552.73,A,0444.241335,N,07403.395493,W,006.6,351.1,180711,,,A*46
demo/demo/$GPRMC,012552.73,A,0444.241335,N,07403.395493,W,006.6,351.1,180711,,,A*46
demo/demo/$GPRMC,012552.73,A,0444.241335,N,07403.395493,W,006.6,351.1,180711,,,A*46
demo/demo/$GPRMC,012552.73,A,0444.241335,N,07403.395493,W,006.6,351.1,180711,,,A*46
demo/demo/$GPRMC,012552.73,A,0444.241335,N,07403.395493,W,006.6,351.1,180711,,,A*46
demo/demo/$GPRMC,012552.73,A,0444.241335,N,07403.395493,W,006.6,351.1,180711,,,A*46
demo/demo/$GPRMC,012552.73,A,0444.241335,N,07403.395493,W,006.6,351.1,180711,,,A*46
demo/demo/$GPRMC,012552.73,A,0444.241335,N,07403.395493,W,006.6,351.1,180711,,,A*46
demo/demo/$GPRMC,012552.73,A,0444.241335,N,07403.395493,W,006.6,351.1,180711,,,A*46
demo/demo/$GPRMC,012552.73,A,0444.241335,N,07403.395493,W,006.6,351.1,180711,,,A*46
demo/demo/$GPRMC,012552.73,A,0444.241335,N,07403.395493,W,006.6,351.1,180711,,,A*46
demo/demo/$GPRMC,012552.73,A,0444.241335,N,07403.395493,W,006.6,351.1,180711,,,A*46
demo/demo/$GPRMC,012552.73,A,0444.241335,N,07403.395493,W,006.6,351.1,180711,,,A*46
demo/demo/$GPRMC,012552.73,A,0444.241335,N,07403.395493,W,006.6,351.1,180711,,,A*46
demo/demo/$GPRMC,012552.73,A,0444.241335,N,07403.395493,W,006.6,351.1,180711,,,A*46
demo/demo/$GPRMC,012552.73,A,0444.241335,N,07403.395493,W,006.6,351.1,180711,,,A*46
demo/demo/$GPRMC,012552.73,A,0444.241335,N,07403.395493,W,006.6,351.1,180711,,,A*46
demo/demo/$GPRMC,012552.73,A,0444.241335,N,07403.395493,W,006.6,351.1,180711,,,A*46
demo/demo/$GPRMC,012552.73,A,0444.241335,N,07403.395493,W,006.6,351.1,180711,,,A*46
demo/demo/$GPRMC,012552.73,A,0444.241335,N,07403.395493,W,006.6,351.1,180711,,,A*46
demo/demo/$GPRMC,012552.73,A,0444.241335,N,07403.395493,W,006.6,351.1,180711,,,A*46
demo/demo/$GPRMC,012552.73,A,0444.241335,N,07403.395493,W,006.6,351.1,180711,,,A*46
demo/demo/$GPRMC,012552.73,A,0444.241335,N,07403.395493,W,006.6,351.1,180711,,,A*46
demo/demo/$GPRMC,012552.73,A,0444.241335,N,07403.395493,W,006.6,351.1,180711,,,A*46
demo/demo/$GPRMC,012552.73,A,0444.241335,N,07403.395493,W,006.6,351.1,180711,,,A*46
demo/demo/$GPRMC,012552.73,A,0444.241335,N,07403.395493,W,006.6,351.1,180711,,,A*46
demo/demo/$GPRMC,012552.73,A,0444.241335,N,07403.395493,W,006.6,351.1,180711,,,A*46
demo/demo/$GPRMC,012552.73,A,0444.241335,N,07403.395493,W,006.6,351.1,180711,,,A*46
demo/demo/$GPRMC,012552.73,A,0444.241335,N,07403.395493,W,006.6,351.1,180711,,,A*46
demo/demo/$GPRMC,012552.73,A,0444.241335,N,07403.395493,W,006.6,351.1,180711,,,A*46
demo/demo/$GPRMC,012552.73,A,0444.241335,N,07403.395493,W,006.6,351.1,180711,,,A*46
demo/demo/$GPRMC,012552.73,A,0444.241335,N,07403.395493,W,006.6,351.1,180711,,,A*46
demo/demo/$GPRMC,012552.73,A,0444.241335,N,07403.395493,W,006.6,351.1,180711,,,A*46
demo/demo/$GPRMC,012552.73,A,0444.241335,N,07403.395493,W,006.6,351.1,180711,,,A*46
demo/demo/$GPRMC,012552.73,A,0444.241335,N,07403.395493,W,006.6,351.1,180711,,,A*46
demo/demo/$GPRMC,012552.73,A,0444.241335,N,07403.395493,W,006.6,351.1,180711,,,A*46
demo/demo/$GPRMC,012552.73,A,0444.241335,N,07403.395493,W,006.6,351.1,180711,,,A*46
demo/demo/$GPRMC,012552.73,A,0444.241335,N,07403.395493,W,006.6,351.1,180711,,,A*46
demo/demo/$GPRMC,012552.73,A,0444.241335,N,07403.395493,W,006.6,351.1,180711,,,A*46
demo/demo/$GPRMC,012552.73,A,0444.241335,N,07403.395493,W,006.6,351.1,180711,,,A*46
demo/demo/$GPRMC,012552.73,A,0444.241335,N,07403.395493,W,006.6,351.1,180711,,,A*46
demo/demo/$GPRMC,012552.73,A,0444.241335,N,07403.395493,W,006.6,351.1,180711,,,A*46
demo/demo/$GPRMC,012552.73,A,0444.241335,N,07403.395493,W,006.6,351.1,180711,,,A*46
demo/demo/$GPRMC,012552.73,A,0444.241335,N,07403.395493,W,006.6,351.1,180711,,,A*46
demo/demo/$GPRMC,012552.73,A,0444.241335,N,07403.395493,W,006.6,351.1,180711,,,A*46
demo/demo/$GPRMC,012552.73,A,0444.241335,N,07403.395493,W,006.6,351.1,180711,,,A*46
demo/demo/$GPRMC,012552.73,A,0444.241335,N,07403.395493,W,006.6,351.1,180711,,,A*46
demo/demo/$GPRMC,012552.73,A,0444.241335,N,07403.395493,W,006.6,351.1,180711,,,A*46
demo/demo/$GPRMC,012552.73,A,0444.241335,N,07403.395493,W,006.6,351.1,180711,,,A*46
demo/demo/$GPRMC,012552.73,A,0444.241335,N,07403.395493,W,006.6,351.1,180711,,,A*46
demo/demo/$GPRMC,012552.73,A,0444.241335,N,07403.395493,W,006.6,351.1,180711,,,A*46
demo/demo/$GPRMC,012552.73,A,0444.241335,N,07403.395493,W,006.6,351.1,180711,,,A*46
demo/demo/$GPRMC,012552.73,A,0444.241335,N,07403.395493,W,006.6,351.1,180711,,,A*46
demo/demo/$GPRMC,012552.73,A,0444.241335,N,07403.395493,W,006.6,351.1,180711,,,A*46
demo/demo/$GPRMC,012552.73,A,0444.241335,N,07403.395493,W,006.6,351.1,180711,,,A*46
demo/demo/$GPRMC,012552.73,A,0444.241335,N,07403.395493,W,006.6,351.1,180711,,,A*46
demo/demo/$GPRMC,012552.73,A,0444.241335,N,07403.395493,W,006.6,351.1,180711,,,A*46
demo/demo/$GPRMC,012552.73,A,0444.241335,N,07403.395493,W,006.6,351.1,180711,,,A*46
demo/demo/$GPRMC,012552.73,A,0444.241335,N,07403.395493,W,006.6,351.1,180711,,,A*46
demo/demo/$GPRMC,012552.73,A,0444.241335,N,07403.395493,W,006.6,351.1,180711,,,A*46
demo/demo/$GPRMC,012552.73,A,0444.241335,N,07403.395493,W,006.6,351.1,180711,,,A*46
demo/demo/$GPRMC,012552.73,A,0444.241335,N,07403.395493,W,006.6,351.1,180711,,,A*46
demo/demo/$GPRMC,012552.73,A,0444.241335,N,07403.395493,W,006.6,351.1,180711,,,A*46
demo/demo/$GPRMC,012552.73,A,0444.241335,N,07403.395493,W,006.6,351.1,180711,,,A*46
demo/demo/$GPRMC,012552.73,A,0444.241335,N,07403.395493,W,006.6,351.1,180711,,,A*46
demo/demo/$GPRMC,012552.73,A,0444.241335,N,07403.395493,W,006.6,351.1,180711,,,A*46
demo/demo/$GPRMC,012552.73,A,0444.241335,N,07403.395493,W,006.6,351.1,180711,,,A*46
demo/demo/$GPRMC,012552.73,A,0444.241335,N,07403.395493,W,006.6,351.1,180711,,,A*46
demo/demo/$GPRMC,012552.73,A,0444.241335,N,07403.395493,W,006.6,351.1,180711,,,A*46
demo/demo/$GPRMC,012552.73,A,0444.241335,N,07403.395493,W,006.6,351.1,180711,,,A*46
demo/demo/$GPRMC,012552.73,A,0444.241335,N,07403.395493,W,006.6,351.1,180711,,,A*46
demo/demo/$GPRMC,012552.73,A,0444.241335,N,07403.395493,W,006.6,351.1,180711,,,A*46
demo/demo/$GPRMC,012552.73,A,0444.241335,N,07403.395493,W,006.6,351.1,180711,,,A*46
demo/demo/$GPRMC,012552.73,A,0444.241335,N,07403.395493,W,006.6,351.1,180711,,,A*46
demo/demo/$GPRMC,012552.73,A,0444.241335,N,07403.395493,W,006.6,351.1,180711,,,A*46
demo/demo/$GPRMC,012552.73,A,0444.241335,N,07403.395493,W,006.6,351.1,180711,,,A*46
demo/demo/$GPRMC,012552.73,A,0444.241335,N,07403.395493,W,006.6,351.1,180711,,,A*46
demo/demo/$GPRMC,012552.73,A,0444.241335,N,07403.395493,W,006.6,351.1,180711,,,A*46
demo/demo/$GPRMC,012552.73,A,0444.241335,N,07403.395493,W,006.6,351.1,180711,,,A*46
demo/demo/$GPRMC,012552.73,A,0444.241335,N,07403.395493,W,006.6,351.1,180711,,,A*46
demo/demo/$GPRMC,012552.73,A,0444.241335,N,07403.395493,W,006.6,351.1,180711,,,A*46
demo/demo/$GPRMC,012552.73,A,0444.241335,N,07403.395493,W,006.6,351.1,180711,,,A*46
demo/demo/$GPRMC,012552.73,A,0444.241335,N,07403.395493,W,006.6,351.1,180711,,,A*46
demo/demo/$GPRMC,012552.73,A,0444.241335,N,07403.395493,W,006.6,351.1,180711,,,A*46
demo/demo/$GPRMC,012552.73,A,0444.241335,N,07403.395493,W,006.6,351.1,180711,,,A*46
demo/demo/$GPRMC,012552.73,A,0444.241335,N,07403.395493,W,006.6,351.1,180711,,,A*46
demo/demo/$GPRMC,012552.73,A,0444.241335,N,07403.395493,W,006.6,351.1,180711,,,A*46
demo/demo/$GPRMC,012552.73,A,0444.241335,N,07403.395493,W,006.6,351.1,180711,,,A*46
demo/demo/$GPRMC,012552.73,A,0444.241335,N,07403.395493,W,006.6,351.1,180711,,,A*46
demo/demo/$GPRMC,012552.73,A,0444.241335,N,07403.395493,W,006.6,351.1,180711,,,A*46
demo/demo/$GPRMC,012552.73,A,0444.241335,N,07403.395493,W,006.6,351.1,180711,,,A*46
demo/demo/$GPRMC,012552.73,A,0444.241335,N,07403.395493,W,006.6,351.1,180711,,,A*46
demo/demo/$GPRMC,012552.73,A,0444.241335,N,07403.395493,W,006.6,351.1,180711,,,A*46
demo/demo/$GPRMC,012552.73,A,0444.241335,N,07403.395493,W,006.6,351.1,180711,,,A*46
demo/demo/$GPRMC,012552.73,A,0444.241335,N,07403.395493,W,006.6,351.1,180711,,,A*46
demo/demo/$GPRMC,012552.73,A,0444.241335,N,07403.395493,W,006.6,351.1,180711,,,A*46
demo/demo/$GPRMC,012552.73,A,0444.241335,N,07403.395493,W,006.6,351.1,180711,,,A*46
demo/demo/$GPRMC,012552.73,A,0444.241335,N,07403.395493,W,006.6,351.1,180711,,,A*46
demo/demo/$GPRMC,012552.73,A,0444.241335,N,07403.395493,W,006.6,351.1,180711,,,A*46
demo/demo/$GPRMC,012552.73,A,0444.241335,N,07403.395493,W,006.6,351.1,180711,,,A*46
demo/demo/$GPRMC,012552.73,A,0444.241335,N,07403.395493,W,006.6,351.1,180711,,,A*46
demo/demo/$GPRMC,012552.73,A,0444.241335,N,07403.395493,W,006.6,351.1,180711,,,A*46
demo/demo/$GPRMC,012552.73,A,0444.241335,N,07403.395493,W,006.6,351.1,180711,,,A*46
demo/demo/$GPRMC,012552.73,A,0444.241335,N,07403.395493,W,006.6,351.1,180711,,,A*46
demo/demo/$GPRMC,012552.73,A,0444.241335,N,07403.395493,W,006.6,351.1,180711,,,A*46
demo/demo/$GPRMC,012552.73,A,0444.241335,N,07403.395493,W,006.6,351.1,180711,,,A*46
demo/demo/$GPRMC,012552.73,A,0444.241335,N,07403.395493,W,006.6,351.1,180711,,,A*46
demo/demo/$GPRMC,012552.73,A,0444.241335,N,07403.395493,W,006.6,351.1,180711,,,A*46
demo/demo/$GPRMC,012552.73,A,0444.241335,N,07403.395493,W,006.6,351.1,180711,,,A*46
demo/demo/$GPRMC,012552.73,A,0444.241335,N,07403.395493,W,006.6,351.1,180711,,,A*46
demo/demo/$GPRMC,012552.73,A,0444.241335,N,07403.395493,W,006.6,351.1,180711,,,A*46
demo/demo/$GPRMC,012552.73,A,0444.241335,N,07403.395493,W,006.6,351.1,180711,,,A*46
demo/demo/$GPRMC,012552.73,A,0444.241335,N,07403.395493,W,006.6,351.1,180711,,,A*46
demo/demo/$GPRMC,012552.73,A,0444.241335,N,07403.395493,W,006.6,351.1,180711,,,A*46
demo/demo/$GPRMC,012552.73,A,0444.241335,N,07403.395493,W,006.6,351.1,180711,,,A*46
demo/demo/$GPRMC,012552.73,A,0444.241335,N,07403.395493,W,006.6,351.1,180711,,,A*46
demo/demo/$GPRMC,012552.73,A,0444.241335,N,07403.395493,W,006.6,351.1,180711,,,A*46
demo/demo/$GPRMC,012552.73,A,0444.241335,N,07403.395493,W,006.6,351.1,180711,,,A*46
demo/demo/$GPRMC,012552.73,A,0444.241335,N,07403.395493,W,006.6,351.1,180711,,,A*46
demo/demo/$GPRMC,012552.73,A,0444.241335,N,07403.395493,W,006.6,351.1,180711,,,A*46
demo/demo/$GPRMC,012552.73,A,0444.241335,N,07403.395493,W,006.6,351.1,180711,,,A*46
demo/demo/$GPRMC,012552.73,A,0444.241335,N,07403.395493,W,006.6,351.1,180711,,,A*46
demo/demo/$GPRMC,012552.73,A,0444.241335,N,07403.395493,W,006.6,351.1,180711,,,A*46
demo/demo/$GPRMC,012552.73,A,0444.241335,N,07403.395493,W,006.6,351.1,180711,,,A*46
demo/demo/$GPRMC,012552.73,A,0444.241335,N,07403.395493,W,006.6,351.1,180711,,,A*46
demo/demo/$GPRMC,012552.73,A,0444.241335,N,07403.395493,W,006.6,351.1,180711,,,A*46
demo/demo/$GPRMC,012552.73,A,0444.241335,N,07403.395493,W,006.6,351.1,180711,,,A*46
demo/demo/$GPRMC,012552.73,A,0444.241335,N,07403.395493,W,006.6,351.1,180711,,,A*46
demo/demo/$GPRMC,012552.73,A,0444.241335,N,07403.395493,W,006.6,351.1,180711,,,A*46
demo/demo/$GPRMC,012552.73,A,0444.241335,N,07403.395493,W,006.6,351.1,180711,,,A*46
demo/demo/$GPRMC,012552.73,A,0444.241335,N,07403.395493,W,006.6,351.1,180711,,,A*46
demo/demo/$GPRMC,012552.73,A,0444.241335,N,07403.395493,W,006.6,351.1,180711,,,A*46
demo/demo/$GPRMC,012552.73,A,0444.241335,N,07403.395493,W,006.6,351.1,180711,,,A*46
demo/demo/$GPRMC,012552.73,A,0444.241335,N,07403.395493,W,006.6,351.1,180711,,,A*46
demo/demo/$GPRMC,012552.73,A,0444.241335,N,07403.395493,W,006.6,351.1,180711,,,A*46
demo/demo/$GPRMC,012552.73,A,0444.241335,N,07403.395493,W,006.6,351.1,180711,,,A*46
demo/demo/$GPRMC,012552.73,A,0444.241335,N,07403.395493,W,006.6,351.1,180711,,,A*46
demo/demo/$GPRMC,012552.73,A,0444.241335,N,07403.395493,W,006.6,351.1,180711,,,A*46
demo/demo/$GPRMC,012552.73,A,0444.241335,N,07403.395493,W,006.6,351.1,180711,,,A*46
demo/demo/$GPRMC,012552.73,A,0444.241335,N,07403.395493,W,006.6,351.1,180711,,,A*46
demo/demo/$GPRMC,012552.73,A,0444.241335,N,07403.395493,W,006.6,351.1,180711,,,A*46
demo/demo/$GPRMC,012552.73,A,0444.241335,N,07403.395493,W,006.6,351.1,180711,,,A*46
demo/demo/$GPRMC,012552.73,A,0444.241335,N,07403.395493,W,006.6,351.1,180711,,,A*46
demo/demo/$GPRMC,012552.73,A,0444.241335,N,07403.395493,W,006.6,351.1,180711,,,A*46
demo/demo/$GPRMC,012552.73,A,0444.241335,N,07403.395493,W,006.6,351.1,180711,,,A*46
demo/demo/$GPRMC,012552.73,A,0444.241335,N,07403.395493,W,006.6,351.1,180711,,,A*46
demo/demo/$GPRMC,012552.73,A,0444.241335,N,07403.395493,W,006.6,351.1,180711,,,A*46
demo/demo/$GPRMC,012552.73,A,0444.241335,N,07403.395493,W,006.6,351.1,180711,,,A*46
demo/demo/$GPRMC,012552.73,A,0444.241335,N,07403.395493,W,006.6,351.1,180711,,,A*46
demo/demo/$GPRMC,012552.73,A,0444.241335,N,07403.395493,W,006.6,351.1,180711,,,A*46
demo/demo/$GPRMC,012552.73,A,0444.241335,N,07403.395493,W,006.6,351.1,180711,,,A*46
demo/demo/$GPRMC,012552.73,A,0444.241335,N,07403.395493,W,006.6,351.1,180711,,,A*46
demo/demo/$GPRMC,012552.73,A,0444.241335,N,07403.395493,W,006.6,351.1,180711,,,A*46
demo/demo/$GPRMC,012552.73,A,0444.241335,N,07403.395493,W,006.6,351.1,180711,,,A*46
demo/demo/$GPRMC,012552.73,A,0444.241335,N,07403.395493,W,006.6,351.1,180711,,,A*46
demo/demo/$GPRMC,012552.73,A,0444.241335,N,07403.395493,W,006.6,351.1,180711,,,A*46
demo/demo/$GPRMC,012552.73,A,0444.241335,N,07403.395493,W,006.6,351.1,180711,,,A*46
demo/demo/$GPRMC,012552.73,A,0444.241335,N,07403.395493,W,006.6,351.1,180711,,,A*46
demo/demo/$GPRMC,012552.73,A,0444.241335,N,07403.395493,W,006.6,351.1,180711,,,A*46
demo/demo/$GPRMC,012552.73,A,0444.241335,N,07403.395493,W,006.6,351.1,180711,,,A*46
demo/demo/$GPRMC,012552.73,A,0444.241335,N,07403.395493,W,006.6,351.1,180711,,,A*46
demo/demo/$GPRMC,012552.73,A,0444.241335,N,07403.395493,W,006.6,351.1,180711,,,A*46
demo/demo/$GPRMC,012552.73,A,0444.241335,N,07403.395493,W,006.6,351.1,180711,,,A*46
demo/demo/$GPRMC,012552.73,A,0444.241335,N,07403.395493,W,006.6,351.1,180711,,,A*46
demo/demo/$GPRMC,012552.73,A,0444.241335,N,07403.395493,W,006.6,351.1,180711,,,A*46
demo/demo/$GPRMC,012552.73,A,0444.241335,N,07403.395493,W,006.6,351.1,180711,,,A*46
demo/demo/$GPRMC,012552.73,A,0444.241335,N,07403.395493,W,006.6,351.1,180711,,,A*46
demo/demo/$GPRMC,012552.73,A,0444.241335,N,07403.395493,W,006.6,351.1,180711,,,A*46
demo/demo/$GPRMC,012552.73,A,0444.241335,N,07403.395493,W,006.6,351.1,180711,,,A*46
demo/demo/$GPRMC,012552.73,A,0444.241335,N,07403.395493,W,006.6,351.1,180711,,,A*46
demo/demo/$GPRMC,012552.73,A,0444.241335,N,07403.395493,W,006.6,351.1,180711,,,A*46
demo/demo/$GPRMC,012552.73,A,0444.241335,N,07403.395493,W,006.6,351.1,180711,,,A*46
demo/demo/$GPRMC,012552.73,A,0444.241335,N,07403.395493,W,006.6,351.1,180711,,,A*46
demo/demo/$GPRMC,012552.73,A,0444.241335,N,07403.395493,W,006.6,351.1,180711,,,A*46
demo/demo/$GPRMC,012552.73,A,0444.241335,N,07403.395493,W,006.6,351.1,180711,,,A*46
demo/demo/$GPRMC,012552.73,A,0444.241335,N,07403.395493,W,006.6,351.1,180711,,,A*46
demo/demo/$GPRMC,012552.73,A,0444.241335,N,07403.395493,W,006.6,351.1,180711,,,A*46
demo/demo/$GPRMC,012552.73,A,0444.241335,N,07403.395493,W,006.6,351.1,180711,,,A*46
demo/demo/$GPRMC,012552.73,A,0444.241335,N,07403.395493,W,006.6,351.1,180711,,,A*46
demo/demo/$GPRMC,012552.73,A,0444.241335,N,07403.395493,W,006.6,351.1,180711,,,A*46
demo/demo/$GPRMC,012552.73,A,0444.241335,N,07403.395493,W,006.6,351.1,180711,,,A*46
demo/demo/$GPRMC,012552.73,A,0444.241335,N,07403.395493,W,006.6,351.1,180711,,,A*46
demo/demo/$GPRMC,012552.73,A,0444.241335,N,07403.395493,W,006.6,351.1,180711,,,A*46
demo/demo/$GPRMC,012552.73,A,0444.241335,N,07403.395493,W,006.6,351.1,180711,,,A*46
demo/demo/$GPRMC,012552.73,A,0444.241335,N,07403.395493,W,006.6,351.1,180711,,,A*46
demo/demo/$GPRMC,012552.73,A,0444.241335,N,07403.395493,W,006.6,351.1,180711,,,A*46
demo/demo/$GPRMC,012552.73,A,0444.241335,N,07403.395493,W,006.6,351.1,180711,,,A*46
demo/demo/$GPRMC,012552.73,A,0444.241335,N,07403.395493,W,006.6,351.1,180711,,,A*46
demo/demo/$GPRMC,012552.73,A,0444.241335,N,07403.395493,W,006.6,351.1,180711,,,A*46
demo/demo/$GPRMC,012552.73,A,0444.241335,N,07403.395493,W,006.6,351.1,180711,,,A*46
demo/demo/$GPRMC,012552.73,A,0444.241335,N,07403.395493,W,006.6,351.1,180711,,,A*46
demo/demo/$GPRMC,012552.73,A,0444.241335,N,07403.395493,W,006.6,351.1,180711,,,A*46
demo/demo/$GPRMC,012552.73,A,0444.241335,N,07403.395493,W,006.6,351.1,180711,,,A*46
demo/demo/$GPRMC,012552.73,A,0444.241335,N,07403.395493,W,006.6,351.1,180711,,,A*46
demo/demo/$GPRMC,012552.73,A,0444.241335,N,07403.395493,W,006.6,351.1,180711,,,A*46
demo/demo/$GPRMC,012552.73,A,0444.241335,N,07403.395493,W,006.6,351.1,180711,,,A*46
demo/demo/$GPRMC,012552.73,A,0444.241335,N,07403.395493,W,006.6,351.1,180711,,,A*46
demo/demo/$GPRMC,012552.73,A,0444.241335,N,07403.395493,W,006.6,351.1,180711,,,A*46
demo/demo/$GPRMC,012552.73,A,0444.241335,N,07403.395493,W,006.6,351.1,180711,,,A*46
demo/demo/$GPRMC,012552.73,A,0444.241335,N,07403.395493,W,006.6,351.1,180711,,,A*46
demo/demo/$GPRMC,012552.73,A,0444.241335,N,07403.395493,W,006.6,351.1,180711,,,A*46
demo/demo/$GPRMC,012552.73,A,0444.241335,N,07403.395493,W,006.6,351.1,180711,,,A*46
demo/demo/$GPRMC,012552.73,A,0444.241335,N,07403.395493,W,006.6,351.1,180711,,,A*46
demo/demo/$GPRMC,012552.73,A,0444.241335,N,07403.395493,W,006.6,351.1,180711,,,A*46
demo/demo/$GPRMC,012552.73,A,0444.241335,N,07403.395493,W,006.6,351.1,180711,,,A*46
demo/demo/$GPRMC,012552.73,A,0444.241335,N,07403.395493,W,006.6,351.1,180711,,,A*46
demo/demo/$GPRMC,012552.73,A,0444.241335,N,07403.395493,W,006.6,351.1,180711,,,A*46
demo/demo/$GPRMC,012552.73,A,0444.241335,N,07403.395493,W,006.6,351.1,180711,,,A*46
demo/demo/$GPRMC,012552.73,A,0444.241335,N,07403.395493,W,006.6,351.1,180711,,,A*46
demo/demo/$GPRMC,012552.73,A,0444.241335,N,07403.395493,W,006.6,351.1,180711,,,A*46
demo/demo/$GPRMC,012552.73,A,0444.241335,N,07403.395493,W,006.6,351.1,180711,,,A*46
demo/demo/$GPRMC,012552.73,A,0444.241335,N,07403.395493,W,006.6,351.1,180711,,,A*46
demo/demo/$GPRMC,012552.73,A,0444.241335,N,07403.395493,W,006.6,351.1,180711,,,A*46
demo/demo/$GPRMC,012552.73,A,0444.241335,N,07403.395493,W,006.6,351.1,180711,,,A*46
demo/demo/$GPRMC,012552.73,A,0444.241335,N,07403.395493,W,006.6,351.1,180711,,,A*46
demo/demo/$GPRMC,012552.73,A,0444.241335,N,07403.395493,W,006.6,351.1,180711,,,A*46
demo/demo/$GPRMC,012552.73,A,0444.241335,N,07403.395493,W,006.6,351.1,180711,,,A*46
demo/demo/$GPRMC,012552.73,A,0444.241335,N,07403.395493,W,006.6,351.1,180711,,,A*46
demo/demo/$GPRMC,012552.73,A,0444.241335,N,07403.395493,W,006.6,351.1,180711,,,A*46
demo/demo/$GPRMC,012552.73,A,0444.241335,N,07403.395493,W,006.6,351.1,180711,,,A*46
demo/demo/$GPRMC,012552.73,A,0444.241335,N,07403.395493,W,006.6,351.1,180711,,,A*46
demo/demo/$GPRMC,012552.73,A,0444.241335,N,07403.395493,W,006.6,351.1,180711,,,A*46
demo/demo/$GPRMC,012552.73,A,0444.241335,N,07403.395493,W,006.6,351.1,180711,,,A*46
demo/demo/$GPRMC,012552.73,A,0444.241335,N,07403.395493,W,006.6,351.1,180711,,,A*46
demo/demo/$GPRMC,012552.73,A,0444.241335,N,07403.395493,W,006.6,351.1,180711,,,A*46
demo/demo/$GPRMC,012552.73,A,0444.241335,N,07403.395493,W,006.6,351.1,180711,,,A*46
demo/demo/$GPRMC,012552.73,A,0444.241335,N,07403.395493,W,006.6,351.1,180711,,,A*46
demo/demo/$GPRMC,012552.73,A,0444.241335,N,07403.395493,W,006.6,351.1,180711,,,A*46
demo/demo/$GPRMC,012552.73,A,0444.241335,N,07403.395493,W,006.6,351.1,180711,,,A*46
demo/demo/$GPRMC,012552.73,A,0444.241335,N,07403.395493,W,006.6,351.1,180711,,,A*46
demo/demo/$GPRMC,012552.73,A,0444.241335,N,07403.395493,W,006.6,351.1,180711,,,A*46
demo/demo/$GPRMC,012552.73,A,0444.241335,N,07403.395493,W,006.6,351.1,180711,,,A*46
demo/demo/$GPRMC,012552.73,A,0444.241335,N,07403.395493,W,006.6,351.1,180711,,,A*46
demo/demo/$GPRMC,012552.73,A,0444.241335,N,07403.395493,W,006.6,351.1,180711,,,A*46
demo/demo/$GPRMC,012552.73,A,0444.241335,N,07403.395493,W,006.6,351.1,180711,,,A*46
demo/demo/$GPRMC,012552.73,A,0444.241335,N,07403.395493,W,006.6,351.1,180711,,,A*46
demo/demo/$GPRMC,012552.73,A,0444.241335,N,07403.395493,W,006.6,351.1,180711,,,A*46
demo/demo/$GPRMC,012552.73,A,0444.241335,N,07403.395493,W,006.6,351.1,180711,,,A*46
demo/demo/$GPRMC,012552.73,A,0444.241335,N,07403.395493,W,006.6,351.1,180711,,,A*46
demo/demo/$GPRMC,012552.73,A,0444.241335,N,07403.395493,W,006.6,351.1,180711,,,A*46
demo/demo/$GPRMC,012552.73,A,0444.241335,N,07403.395493,W,006.6,351.1,180711,,,A*46
demo/demo/$GPRMC,012552.73,A,0444.241335,N,07403.395493,W,006.6,351.1,180711,,,A*46
demo/demo/$GPRMC,012552.73,A,0444.241335,N,07403.395493,W,006.6,351.1,180711,,,A*46
demo/demo/$GPRMC,012552.73,A,0444.241335,N,07403.395493,W,006.6,351.1,180711,,,A*46
demo/demo/$GPRMC,012552.73,A,0444.241335,N,07403.395493,W,006.6,351.1,180711,,,A*46
demo/demo/$GPRMC,012552.73,A,0444.241335,N,07403.395493,W,006.6,351.1,180711,,,A*46
demo/demo/$GPRMC,012552.73,A,0444.241335,N,07403.395493,W,006.6,351.1,180711,,,A*46
demo/demo/$GPRMC,012552.73,A,0444.241335,N,07403.395493,W,006.6,351.1,180711,,,A*46
demo/demo/$GPRMC,012552.73,A,0444.241335,N,07403.395493,W,006.6,351.1,180711,,,A*46
demo/demo/$GPRMC,012552.73,A,0444.241335,N,07403.395493,W,006.6,351.1,180711,,,A*46
demo/demo/$GPRMC,012552.73,A,0444.241335,N,07403.395493,W,006.6,351.1,180711,,,A*46
demo/demo/$GPRMC,012552.73,A,0444.241335,N,07403.395493,W,006.6,351.1,180711,,,A*46
demo/demo/$GPRMC,012552.73,A,0444.241335,N,07403.395493,W,006.6,351.1,180711,,,A*46
demo/demo/$GPRMC,012552.73,A,0444.241335,N,07403.395493,W,006.6,351.1,180711,,,A*46
demo/demo/$GPRMC,012552.73,A,0444.241335,N,07403.395493,W,006.6,351.1,180711,,,A*46
demo/demo/$GPRMC,012552.73,A,0444.241335,N,07403.395493,W,006.6,351.1,180711,,,A*46
demo/demo/$GPRMC,012552.73,A,0444.241335,N,07403.395493,W,006.6,351.1,180711,,,A*46
demo/demo/$GPRMC,012552.73,A,0444.241335,N,07403.395493,W,006.6,351.1,180711,,,A*46
demo/demo/$GPRMC,012552.73,A,0444.241335,N,07403.395493,W,006.6,351.1,180711,,,A*46
demo/demo/$GPRMC,012552.73,A,0444.241335,N,07403.395493,W,006.6,351.1,180711,,,A*46
demo/demo/$GPRMC,012552.73,A,0444.241335,N,07403.395493,W,006.6,351.1,180711,,,A*46
demo/demo/$GPRMC,012552.73,A,0444.241335,N,07403.395493,W,006.6,351.1,180711,,,A*46
demo/demo/$GPRMC,012552.73,A,0444.241335,N,07403.395493,W,006.6,351.1,180711,,,A*46
demo/demo/$GPRMC,012552.73,A,0444.241335,N,07403.395493,W,006.6,351.1,180711,,,A*46
demo/demo/$GPRMC,012552.73,A,0444.241335,N,07403.395493,W,006.6,351.1,180711,,,A*46
demo/demo/$GPRMC,012552.73,A,0444.241335,N,07403.395493,W,006.6,351.1,180711,,,A*46
demo/demo/$GPRMC,012552.73,A,0444.241335,N,07403.395493,W,006.6,351.1,180711,,,A*46
demo/demo/$GPRMC,012552.73,A,0444.241335,N,07403.395493,W,006.6,351.1,180711,,,A*46
demo/demo/$GPRMC,012552.73,A,0444.241335,N,07403.395493,W,006.6,351.1,180711,,,A*46
demo/demo/$GPRMC,012552.73,A,0444.241335,N,07403.395493,W,006.6,351.1,180711,,,A*46
demo/demo/$GPRMC,012552.73,A,0444.241335,N,07403.395493,W,006.6,351.1,180711,,,A*46
demo/demo/$GPRMC,012552.73,A,0444.241335,N,07403.395493,W,006.6,351.1,180711,,,A*46
demo/demo/$GPRMC,012552.73,A,0444.241335,N,07403.395493,W,006.6,351.1,180711,,,A*46
demo/demo/$GPRMC,012552.73,A,0444.241335,N,07403.395493,W,006.6,351.1,180711,,,A*46
demo/demo/$GPRMC,012552.73,A,0444.241335,N,07403.395493,W,006.6,351.1,180711,,,A*46
demo/demo/$GPRMC,012552.73,A,0444.241335,N,07403.395493,W,006.6,351.1,180711,,,A*46
demo/demo/$GPRMC,012552.73,A,0444.241335,N,07403.395493,W,006.6,351.1,180711,,,A*46
demo/demo/$GPRMC,012552.73,A,0444.241335,N,07403.395493,W,006.6,351.1,180711,,,A*46
demo/demo/$GPRMC,012552.73,A,0444.241335,N,07403.395493,W,006.6,351.1,180711,,,A*46
demo/demo/$GPRMC,012552.73,A,0444.241335,N,07403.395493,W,006.6,351.1,180711,,,A*46
demo/demo/$GPRMC,012552.73,A,0444.241335,N,07403.395493,W,006.6,351.1,180711,,,A*46
demo/demo/$GPRMC,012552.73,A,0444.241335,N,07403.395493,W,006.6,351.1,180711,,,A*46
demo/demo/$GPRMC,012552.73,A,0444.241335,N,07403.395493,W,006.6,351.1,180711,,,A*46
demo/demo/$GPRMC,012552.73,A,0444.241335,N,07403.395493,W,006.6,351.1,180711,,,A*46
demo/demo/$GPRMC,012552.73,A,0444.241335,N,07403.395493,W,006.6,351.1,180711,,,A*46
demo/demo/$GPRMC,012552.73,A,0444.241335,N,07403.395493,W,006.6,351.1,180711,,,A*46
demo/demo/$GPRMC,012552.73,A,0444.241335,N,07403.395493,W,006.6,351.1,180711,,,A*46
demo/demo/$GPRMC,012552.73,A,0444.241335,N,07403.395493,W,006.6,351.1,180711,,,A*46
demo/demo/$GPRMC,012552.73,A,0444.241335,N,07403.395493,W,006.6,351.1,180711,,,A*46
demo/demo/$GPRMC,012552.73,A,0444.241335,N,07403.395493,W,006.6,351.1,180711,,,A*46
demo/demo/$GPRMC,012552.73,A,0444.241335,N,07403.395493,W,006.6,351.1,180711,,,A*46
demo/demo/$GPRMC,012552.73,A,0444.241335,N,07403.395493,W,006.6,351.1,180711,,,A*46
demo/demo/$GPRMC,012552.73,A,0444.241335,N,07403.395493,W,006.6,351.1,180711,,,A*46
demo/demo/$GPRMC,012552.73,A,0444.241335,N,07403.395493,W,006.6,351.1,180711,,,A*46
demo/demo/$GPRMC,012552.73,A,0444.241335,N,07403.395493,W,006.6,351.1,180711,,,A*46
demo/demo/$GPRMC,012552.73,A,0444.241335,N,07403.395493,W,006.6,351.1,180711,,,A*46
demo/demo/$GPRMC,012552.73,A,0444.241335,N,07403.395493,W,006.6,351.1,180711,,,A*46
demo/demo/$GPRMC,012552.73,A,0444.241335,N,07403.395493,W,006.6,351.1,180711,,,A*46
demo/demo/$GPRMC,012552.73,A,0444.241335,N,07403.395493,W,006.6,351.1,180711,,,A*46
demo/demo/$GPRMC,012552.73,A,0444.241335,N,07403.395493,W,006.6,351.1,180711,,,A*46
demo/demo/$GPRMC,012552.73,A,0444.241335,N,07403.395493,W,006.6,351.1,180711,,,A*46
demo/demo/$GPRMC,012552.73,A,0444.241335,N,07403.395493,W,006.6,351.1,180711,,,A*46
demo/demo/$GPRMC,012552.73,A,0444.241335,N,07403.395493,W,006.6,351.1,180711,,,A*46
demo/demo/$GPRMC,012552.73,A,0444.241335,N,07403.395493,W,006.6,351.1,180711,,,A*46
demo/demo/$GPRMC,012552.73,A,0444.241335,N,07403.395493,W,006.6,351.1,180711,,,A*46
demo/demo/$GPRMC,012552.73,A,0444.241335,N,07403.395493,W,006.6,351.1,180711,,,A*46
demo/demo/$GPRMC,012552.73,A,0444.241335,N,07403.395493,W,006.6,351.1,180711,,,A*46
demo/demo/$GPRMC,012552.73,A,0444.241335,N,07403.395493,W,006.6,351.1,180711,,,A*46
demo/demo/$GPRMC,012552.73,A,0444.241335,N,07403.395493,W,006.6,351.1,180711,,,A*46
demo/demo/$GPRMC,012552.73,A,0444.241335,N,07403.395493,W,006.6,351.1,180711,,,A*46
